stop_id,stop_name,stop_lat,stop_lon
638177,Nyárfa utca,48.081361,20.723168
638179,LÁEV (kisvasút),48.100110,20.704797
638180,Vasgyár,48.095330,20.730342
638181,Diósgyőri Gimnázium,48.100132,20.708846
638182,Diósgyőri Gimnázium,48.100191,20.708458
638183,Vasgyár,48.094545,20.728844
638185,Vasgyár,48.094453,20.728738
638186,Vasgyár,48.095134,20.728014
638190,Fonoda utca,48.106964,20.817554
638191,Fonoda utca,48.106913,20.819026
638201,Lackó-tanya,48.123885,20.713777
638202,Lackó-tanya,48.124665,20.713461
638203,Szarka-hegy (16),48.106296,20.722613
638204,Szarka-hegy (16),48.106997,20.721975
638207,Orvosi rendelő,48.093918,20.814802
638208,Csermőke,48.090659,20.761108
638209,Csermőke,48.090594,20.762057
638210,Berzsenyi Dániel utca,48.087122,20.815749
638211,Berzsenyi Dániel utca,48.086862,20.815916
638214,Erdő utca,48.103906,20.674107
638216,Tokaji Ferenc utca,48.096530,20.694635
638217,Ómassa,48.110423,20.532918
638218,Miskolctapolca,48.062246,20.746638
638219,LÁEV (kisvasút),48.099944,20.703162
638220,LÁEV (kisvasút),48.099961,20.702784
638221,Komlóstető elágazás,48.083559,20.726630
638225,Vágóhíd utca,48.109302,20.800609
638226,Vágóhíd utca,48.108787,20.800653
638227,Cserepes ház,48.133817,20.706087
638228,Cserepes ház,48.133157,20.706489
638229,Levente vezér utca,48.115001,20.789918
638230,Levente vezér utca,48.114028,20.789315
638231,Nagy-erenyő,48.125233,20.692988
638232,Nagy-erenyő,48.125149,20.693012
638233,Garadna vasút,48.116667,20.558572
638234,Garadna vasút,48.116663,20.559047
638235,Vízügyi Igazgatóság,48.100276,20.797890
638236,Vízügyi Igazgatóság,48.098638,20.797619
638238,Vízügyi Igazgatóság,48.099499,20.796525
638239,Vízügyi Igazgatóság,48.098958,20.799329
638244,Felső-Hámor,48.106689,20.635105
638245,Felső-Hámor,48.107197,20.635778
638246,Könyves Kálmán utca,48.097287,20.709699
638247,Könyves Kálmán utca,48.097087,20.710866
638248,Sajó utca,48.106493,20.827551
638249,Sajó utca,48.106246,20.828373
638252,Bányaüzem,48.147106,20.685905
638253,Bányaüzem,48.147408,20.686062
638254,Újgyőri főtér,48.101443,20.729699
638255,Újgyőri főtér,48.101434,20.730080
638256,Újgyőri főtér,48.101066,20.731108
638261,Újgyőri főtér,48.101208,20.729927
638265,Újgyőri főtér,48.101153,20.730032
638270,Újgyőri főtér,48.101562,20.729907
638271,Babits Mihály utca,48.077081,20.824066
638272,Babits Mihály utca,48.077343,20.823793
638273,Bükkszentlászló,48.080754,20.664127
638274,Lomb utca,48.078512,20.723402
638276,Villanyrendőr,48.102008,20.785445
638277,Gömöri pályaudvar,48.105745,20.801813
638278,Gömöri pályaudvar,48.105422,20.801813
638279,Gömöri pályaudvar,48.106712,20.799953
638280,Leszih Andor utca,48.093522,20.771668
638281,Leszih Andor utca,48.094022,20.771713
638284,Szirma,48.063126,20.825480
638285,Északi iparterület,48.124620,20.793546
638286,Északi iparterület,48.125327,20.793272
638287,Szervezet utca,48.095039,20.695555
638288,Szervezet utca,48.095162,20.695279
638289,Bodótető,48.107010,20.762210
638290,Damjanich utca,48.099222,20.762887
638291,Damjanich utca,48.098873,20.761849
638292,Örs utca,48.102754,20.741866
638293,Örs utca,48.102702,20.742902
638294,Álmos utca,48.112007,20.788809
638295,Álmos utca,48.111006,20.788222
638296,Lehár utca,48.053207,20.795324
638298,Tapolcai elágazás,48.083217,20.785389
638299,Tapolcai elágazás,48.082341,20.785115
638304,Lyukóbánya,48.147150,20.679169
638305,Vologda városrész,48.106097,20.771293
638306,Vologda városrész,48.106061,20.769767
638307,Vologda városrész,48.106527,20.770225
638308,Bacsinszky András utca,48.054996,20.776707
638309,Bacsinszky András utca,48.055277,20.777393
638310,Csermőkei út,48.076787,20.770696
638311,Csermőkei út,48.076404,20.772739
638314,Sajórajáró út,48.113149,20.799425
638315,Sajórajáró út,48.112784,20.799689
638317,Tatárdomb,48.087171,20.715269
638318,Tatárdomb,48.086869,20.715707
638319,Tatárdomb,48.088173,20.714445
638322,Barátság tér,48.130231,20.675241
638323,Barátság tér,48.130344,20.674893
638324,Repülőtér megállóhely,48.129100,20.791612
638325,Repülőtér megállóhely,48.129646,20.791258
638326,Bertalan utca,48.100858,20.710444
638327,Bertalan utca,48.100913,20.710347
638328,Verseny utca,48.091459,20.704680
638329,Verseny utca,48.091118,20.705981
638330,Thököly utca,48.104188,20.757868
638331,Thököly utca,48.104190,20.758251
638332,Ruzsinszőlő,48.088659,20.767688
638333,Ruzsinszőlő,48.089511,20.766784
638334,Hejőcsabai városrész,48.076534,20.785061
638335,Hejőcsabai városrész,48.075647,20.785504
638336,Szeles utca,48.107546,20.789014
638337,Szeles utca,48.106500,20.789576
638338,Szeles utca,48.107070,20.788333
638339,Szent Anna tér,48.104621,20.763508
638340,Szent Anna tér,48.104618,20.763113
638346,Avas városközpont,48.082029,20.777844
638348,Avas városközpont,48.082011,20.778156
638351,Megyei Kórház,48.120854,20.787739
638352,Megyei Kórház,48.119580,20.788164
638353,Szent Anna tér,48.105510,20.764860
638354,Szent Anna tér,48.105504,20.763576
638355,Gyula utca,48.102883,20.743843
638356,Gyula utca,48.103001,20.745346
638357,Selyemrét,48.102631,20.806568
638358,Selyemrét,48.102666,20.806964
638360,Lévay József utca,48.093168,20.796153
638362,Lévay József utca,48.093522,20.795644
638363,Lévay József utca,48.093858,20.796216
638364,Pesti út,48.055841,20.797895
638365,DVTK Stadion,48.100976,20.719359
638366,DVTK Stadion,48.100939,20.718962
638368,Selyemrét,48.102414,20.805710
638369,Selyemrét,48.102485,20.805072
638371,Szabadságharc utca,48.088523,20.781626
638372,Szabadságharc utca,48.088996,20.780561
638373,Üveggyár,48.097369,20.750986
638374,Üveggyár,48.097347,20.751444
638375,Futó utca,48.066439,20.787037
638377,Futó utca,48.066796,20.787166
638379,Mikes Kelemen utca,48.094900,20.781560
638380,Lyukó-völgy,48.115066,20.717519
638381,Lyukó-völgy,48.115417,20.717456
638384,Kazinczy Ferenc utca,48.105190,20.784315
638385,Kazinczy Ferenc utca,48.106362,20.785303
638386,Berekalja,48.098673,20.676840
638387,Egyetemváros,48.080859,20.764500
638388,Palotaszálló (5),48.103256,20.622254
638389,Palotaszálló (5),48.103124,20.622329
638392,Alsó-Hámor,48.109383,20.640943
638393,Alsó-Hámor,48.109317,20.640532
638395,Kossuth Lajos utca,48.100079,20.859861
638396,Berekkert,48.067625,20.829828
638397,Avas kilátó,48.096694,20.771012
638398,Avas kilátó,48.096734,20.771267
638399,Avas kilátó,48.096752,20.770776
638403,Avas kilátó,48.096859,20.771026
638404,Bükkszentlászló alsó,48.073893,20.675932
638405,Bükkszentlászló alsó,48.074071,20.675933
638406,"Miskolctapolca, parkoló",48.066695,20.753130
638407,"Miskolctapolca, parkoló",48.067877,20.754118
638408,Kiss Ernő utca,48.100193,20.740787
638409,Kiss Ernő utca,48.100141,20.741784
638410,Görömböly,48.051992,20.771708
638411,Erdőgazdaság,48.141505,20.699270
638412,Erdőgazdaság,48.141988,20.698934
638413,Magas-hegy,48.088020,20.747522
638414,Magas-hegy,48.088032,20.746790
638417,Nagyváthy utca,48.101330,20.765585
638418,Petneházy bérházak,48.086154,20.785597
638419,Petneházy bérházak,48.085088,20.785331
638420,Dóczy József utca,48.106888,20.765874
638421,Petőfi tér,48.107103,20.786001
638422,Petőfi tér,48.107529,20.784797
638423,Petőfi tér,48.107622,20.785272
638424,Petőfi tér,48.107125,20.787288
638425,Bulcsú utca,48.109386,20.793140
638426,Bulcsú utca,48.108877,20.793325
638429,Nimród utca,48.113126,20.764989
638430,Marjalaki utca,48.112191,20.766725
638431,Marjalaki utca,48.111997,20.767122
638432,Tinódi utca,48.110655,20.770904
638433,Tinódi utca,48.110632,20.771347
638434,Ládi fűrésztelep,48.085935,20.724943
638435,Ládi fűrésztelep,48.086499,20.725891
638437,Szemere utca,48.100698,20.786479
638438,Szemere utca,48.100534,20.786420
638440,Batthyány sor,48.087514,20.730625
638441,Batthyány sor,48.086961,20.730041
638442,Erkel Ferenc utca,48.068617,20.824073
638444,Diósgyőr városközpont,48.101845,20.688551
638445,Diósgyőr városközpont,48.101611,20.688450
638446,Szemere kert,48.105325,20.779883
638447,Szemere kert,48.105189,20.779235
638452,Tégla utca,48.055904,20.783970
638453,Tégla utca,48.055689,20.784429
638454,Villanyrendőr,48.102504,20.785163
638455,Villanyrendőr,48.102498,20.785806
638459,Y-híd,48.097832,20.802737
638460,Y-híd,48.097769,20.802857
638461,Kelet utca,48.065222,20.828304
638462,Szentgyörgy út,48.074522,20.779784
638463,Szentgyörgy út,48.075055,20.778350
638464,Szentgyörgy út,48.074434,20.778039
638465,Cementgyár,48.067611,20.791591
638466,Cementgyár,48.067598,20.791832
638467,Cementgyár,48.066837,20.791400
638470,Csermőke-Felső,48.089169,20.753452
638471,Csermőke-Felső,48.089415,20.753922
638472,Arborétum,48.095149,20.779350
638476,Lillafüred,48.094125,20.619590
638477,Tímár malom utca,48.100586,20.748222
638478,Tímár malom utca,48.100700,20.748624
638479,Petneházy utca,48.086629,20.790725
638480,Petneházy utca,48.086873,20.790795
638481,Aba utca,48.103865,20.755267
638482,Aba utca,48.103997,20.755063
638483,Pisztrángkeltető,48.116616,20.578896
638484,Pisztrángkeltető,48.116581,20.578843
638485,Bogáncs utca,48.066665,20.823012
638486,Knézich Károly utca,48.092715,20.781222
638489,Soltész Nagy Kálmán utca,48.102730,20.797218
638490,Soltész Nagy Kálmán utca,48.102798,20.796861
638491,"Bükkszentlászló, önkormányzat",48.077980,20.671097
638492,"Bükkszentlászló, önkormányzat",48.077933,20.671109
638493,Szigligeti tér,48.093843,20.788433
638494,Szigligeti tér,48.093938,20.787201
638495,Tanulmányi épület,48.081236,20.766973
638496,Komlóstető,48.076900,20.733763
638497,Újmassa-Őskohó,48.114266,20.587749
638498,Újmassa-Őskohó,48.114121,20.588115
638499,Egyetem,48.079090,20.771992
638500,Egyetem,48.079186,20.772101
638501,Erzsébet tér,48.102020,20.778079
638502,Erzsébet tér,48.102162,20.778376
638503,Sütő-tanya,48.120699,20.715504
638504,Sütő-tanya,48.121093,20.715423
638505,Tampere városrész,48.093004,20.778757
638506,Hengerész utca,48.077713,20.729120
638507,Hengerész utca,48.077924,20.728251
638508,Vasgyári Evangélikus Templom,48.095151,20.727293
638509,Vasgyári temető,48.089598,20.727454
638510,Vasgyári temető,48.090121,20.727893
638511,Hejőcsabai Gyógyszertár,48.072593,20.789300
638512,Hejőcsabai Gyógyszertár,48.073454,20.788083
638516,Sajószigeti út,48.117196,20.797351
638517,Sajószigeti út,48.116127,20.797843
638518,Bánát utca,48.093131,20.700891
638519,Bánát utca,48.092760,20.701512
638520,Turistapark,48.070058,20.758188
638521,Turistapark,48.070603,20.759352
638522,Diósgyőr városközpont,48.101761,20.688487
638523,Papírgyár,48.114253,20.662820
638524,Papírgyár,48.113902,20.663470
638525,AUCHAN-dél (Pesti út),48.057340,20.802607
638526,Egyetemi Kollégium,48.078445,20.770963
638527,Egyetemi Kollégium,48.078810,20.769637
638528,Zenta utca,48.099699,20.697004
638529,Zenta utca,48.099725,20.696621
638530,Majális-park,48.115741,20.658235
638531,Majális-park,48.115608,20.659284
638532,Majális-park,48.115272,20.658496
638533,"Miskolctapolca, strandfürdő",48.064032,20.750072
638534,"Miskolctapolca, strandfürdő",48.063981,20.750203
638536,Olvasztár utca,48.080549,20.726595
638538,Szent László utca,48.108749,20.778323
638539,Anna bánya,48.111983,20.718088
638540,Anna bánya,48.112241,20.718093
638541,Lórántffy Zsuzsanna utca,48.090661,20.710227
638542,Lórántffy Zsuzsanna utca,48.090583,20.710542
638543,Volán,48.101317,20.814889
638544,Volán,48.101518,20.815544
638545,Alföldi utca,48.089484,20.813600
638546,Bükkszentlászlói elágazás,48.068144,20.678510
638547,Bükkszentlászlói elágazás,48.068303,20.678353
638548,Kazinczy Ferenc Általános Iskola,48.086015,20.783309
638549,Kazinczy Ferenc Általános Iskola,48.085180,20.783572
638550,Homokbánya,48.111384,20.706935
638551,Homokbánya,48.111018,20.707336
638552,Magyar-tanya,48.137790,20.703796
638553,Magyar-tanya,48.138525,20.703498
638554,Lavotta utca,48.055747,20.789577
638555,Lavotta utca,48.056313,20.789147
638556,Felsőzsolca,48.095606,20.864979
638558,Malomszög utca,48.104473,20.769776
638559,Malomszög utca,48.104423,20.770147
638560,Zoltán utca,48.103189,20.747926
638561,Zoltán utca,48.103208,20.746840
638562,Csanyik-völgy,48.114152,20.652738
638563,Csanyik-völgy,48.113725,20.652201
638564,Mohostó utca,48.071499,20.828474
638565,Mohostó utca,48.071842,20.828059
638566,Wesselényi utca,48.101466,20.758569
638569,Wesselényi utca,48.101581,20.758520
638572,Repülőtér/BOSCH,48.128706,20.784949
638574,Repülőtér/BOSCH,48.128322,20.784320
638575,Repülőtér/BOSCH,48.128821,20.783616
638578,Harsányi utca,48.054084,20.798001
638579,Károly utca,48.102214,20.737287
638580,Károly utca,48.102319,20.737989
638581,Vörösmarty városrész,48.099724,20.793837
638582,Vörösmarty városrész,48.100093,20.791225
638583,Vörösmarty városrész,48.099326,20.792181
638584,Vörösmarty városrész,48.099533,20.792431
638585,Szirma Általános Iskola,48.074277,20.826303
638586,Szirma Általános Iskola,48.073993,20.826599
638588,Teleki utca,48.101569,20.774246
638589,Hejő-park,48.073470,20.774022
638590,Hejő-park,48.072981,20.774229
638591,Martinkertváros központ,48.092129,20.806822
638592,Martinkertváros központ,48.092337,20.806744
638593,Felsőzsolcai elágazás,48.106070,20.831587
638594,Felsőzsolcai elágazás,48.105865,20.831632
638595,Táncsics tér,48.099681,20.693983
638596,Táncsics tér,48.099869,20.693683
638597,Bollóalja,48.127408,20.688696
638598,Bollóalja,48.127369,20.689020
638599,Középgaradna,48.117413,20.569311
638600,Középgaradna,48.117439,20.569570
638601,Hűtőház,48.096340,20.841729
638604,Szent István-barlang,48.098637,20.621184
638605,Szent István-barlang,48.099065,20.621059
638606,MIK,48.113787,20.703923
638607,MIK,48.114324,20.703551
638608,Diósgyőri Ipari Park,48.093872,20.722163
638609,Diósgyőri Ipari Park,48.094239,20.722292
638610,Kandó Kálmán utca,48.097221,20.705405
638611,Erdő sor,48.132956,20.670645
638612,Erdő sor,48.133519,20.670265
638613,Bábonyi-bérc,48.114988,20.763329
638614,Városház tér,48.103256,20.779038
638615,Városház tér,48.103080,20.779429
638616,SZTK Rendelő,48.090042,20.785732
638617,SZTK Rendelő,48.091060,20.786014
638618,Szinvapark,48.101600,20.791807
638619,Szinvapark,48.102656,20.791843
638620,Szinvapark/Centrum,48.102879,20.789457
638621,Szinvapark/Centrum,48.103093,20.791133
638622,Vörösmarty Mihály utca,48.101035,20.788321
638623,Zsarnai telep,48.120396,20.795680
638625,Zsarnai telep,48.119957,20.795824
638626,Centrum,48.103601,20.789204
638627,Diósgyőri kórház,48.091344,20.723267
638628,Diósgyőri kórház,48.090945,20.724693
638629,Újgyőri piac,48.100592,20.726170
638630,Újgyőri piac,48.101072,20.725943
638631,Újgyőri piac,48.100995,20.725524
638632,Újgyőri piac,48.101006,20.726336
638633,Újgyőri piac,48.101107,20.725223
638637,Kenyérgyár,48.091032,20.711263
638638,Kenyérgyár,48.092001,20.711350
638639,Bajcsy-Zsilinszky út,48.103533,20.797729
638640,Bajcsy-Zsilinszky út,48.103462,20.797906
638641,Gulya-kút,48.129395,20.709530
638642,Gulya-kút,48.129744,20.709302
638643,Népkert,48.095961,20.785630
638644,Népkert,48.096892,20.785816
638645,Balaton utca,48.090325,20.810041
638646,Balaton utca,48.090212,20.810495
638647,Ládi utca,48.083815,20.724079
638648,Sályi István utca,48.078679,20.778696
638649,Sályi István utca,48.078447,20.778433
638650,Fényi Gyula tér,48.084576,20.775283
638651,Olajkutató,48.078769,20.764377
638652,Hatvanötösök útja,48.107731,20.795401
638653,Mészkőbánya,48.077070,20.693601
638654,Mészkőbánya,48.077660,20.694295
638655,Vasúti felüljáró,48.077399,20.783403
638656,Vasúti felüljáró,48.078100,20.783903
638657,Tiszai pályaudvar,48.099274,20.810278
638659,Tiszai pályaudvar,48.099950,20.810047
638660,Tiszai pályaudvar,48.099814,20.810143
638661,Tiszai pályaudvar,48.099874,20.809842
638662,Bolyai Farkas utca,48.088527,20.724103
638663,Bolyai Farkas utca,48.088283,20.723662
638664,Bulgárföld városrész,48.100564,20.714856
638665,Bulgárföld városrész,48.100496,20.713089
638670,Keleti iparterület,48.099148,20.835744
638671,Keleti iparterület,48.099282,20.835247
638672,Vargahegy,48.086230,20.739175
638673,Vargahegy,48.086445,20.738684
638678,Búza tér,48.105344,20.791708
638680,Búza tér,48.104721,20.791541
638684,Búza tér,48.106717,20.791414
638685,Búza tér,48.107043,20.792583
638687,Kis-erenyő,48.122157,20.695883
638688,Kis-erenyő,48.122323,20.695581
638689,Alsó-Majláth,48.104992,20.682082
638690,Alsó-Majláth,48.104746,20.682583
638691,Tiszai pályaudvar,48.099625,20.809873
638694,Tiszai pályaudvar,48.099385,20.809285
638695,Balázs Győző tér,48.103687,20.752197
638696,Balázs Győző tér,48.103563,20.751240
638697,Pereces,48.135446,20.666683
638698,Malom,48.104441,20.798915
638699,Farkas Antal utca,48.063665,20.786332
638700,Salakbánya,48.082977,20.701303
638701,Salakbánya,48.083275,20.701688
638702,Bulgárföld városrész,48.100412,20.713606
638703,Bulgárföld városrész,48.100415,20.713216
638704,Bedegvölgy,48.108126,20.765752
638705,Pünkösd-hegy,48.118178,20.699911
638706,Pünkösd-hegy,48.117572,20.700119
638708,Kassai utca,48.114086,20.794516
638710,Kassai utca,48.114861,20.793455
638711,Balassa utca,48.094820,20.804645
638712,Balassa utca,48.095035,20.804568
643390,Diósgyőri Vár,48.099905,20.691184
643391,Szondi György utca,48.104956,20.813347
643392,Szondi György utca,48.104944,20.813627
643393,Keleti kapu,48.105614,20.837707
643397,Ernye bán utca,48.100957,20.752696
643398,Ernye bán utca,48.100904,20.753276
643399,Bartók Béla utca,48.097472,20.870524
643400,Kertekalja utca,48.101577,20.867715
643401,Toldi utca,48.106392,20.864500
643402,Temető,48.109795,20.862195
643412,Lomb utca,48.078153,20.723195
643415,Felső-Majláth,48.107821,20.676467
643416,LÁEV VP,48.099856,20.703129
643418,Forrásvölgy utca,48.110210,20.778334
643419,Pintes utca,48.114308,20.773966
643420,Sellő utca,48.117631,20.770629
643421,Balázsdiák utca,48.113141,20.775135
643422,Árok utca,48.110133,20.778283
643423,Centrum,48.102983,20.789075
643424,Iskola tér,48.089842,20.802767
643425,Velence utca,48.085596,20.808712
643426,Bornemissza utca,48.086014,20.804930
643427,Vörösmarty Mihály utca,48.099722,20.787123
643475,Nagyváthy utca,48.102973,20.765657
643485,Keleti kapu,48.105765,20.837055
643496,Teleki utca,48.102943,20.772578
643524,Üteg utca,48.103756,20.808222
643525,Üteg utca,48.104655,20.807744
643526,Baross Gábor utca,48.105660,20.808274
643527,Baross Gábor utca,48.105629,20.806612
643528,Balassa utca,48.094643,20.804251
643529,Balaton utca,48.090088,20.810169
643530,Villanyrendőr,48.102290,20.785541
643544,Sütő János utca,48.068573,20.780936
643612,Bölcs utca,48.104160,20.683581
643613,Bölcs utca,48.103921,20.683788
643614,Alsó-Majláth,48.105630,20.681380
643615,Alsó-Majláth,48.105435,20.681672
643616,Felső-Majláth,48.108826,20.676604
643617,Diósgyőr városközpont,48.101590,20.688782
643639,AUCHAN Borsod,48.107861,20.837330
643640,Injekció üzem,48.116175,20.650393
643642,Zenta utca  VP,48.099813,20.696711
643643,DVTK Stadion VP,48.101033,20.719546
643644,LIDL,48.099583,20.745362
643667,Ifjúság útja,48.084720,20.775467
643669,Miskolctapolca,48.062432,20.746418
643670,Kemény Dénes Uszoda,48.075257,20.763523
643671,Kemény Dénes Uszoda,48.075326,20.763491
643672,Újgyőri főtér,48.100800,20.730376
643673,Újgyőri főtér,48.100745,20.729970
643677,Selyemrét,48.102631,20.806568
643678,Selyemrét,48.102666,20.806964
643679,Egyetemváros,48.081565,20.765268
643681,Diósgyőr városközpont,48.101731,20.686917
643687,Majális-park,48.115560,20.658372
643688,Repülőtér/BOSCH,48.128398,20.784664
643691,Olajkutató,48.078322,20.763012
643692,Tiszai pályaudvar,48.099981,20.810599
643693,Búza tér,48.104981,20.792174
643695,Búza tér,48.104572,20.792089
643696,Búza tér,48.104855,20.791342
643697,Búza tér,48.104950,20.792005
643698,Csokonai Vitéz Mihály utca,48.095684,20.811422
643699,Endrődi Sándor utca,48.102507,20.675994
643700,Napsugár otthon,48.125785,20.785157
643701,Napsugár otthon,48.124988,20.785336
643702,Szinva utca,48.103966,20.821124
643703,Szinva utca,48.104278,20.821219
643704,Erzsébet királyné utca,48.060919,20.795069
643705,Móra Ferenc utca,48.104263,20.677398
643706,Móra Ferenc utca,48.104616,20.677344
643707,MVSC Sportpálya,48.096027,20.804178
643708,Mednyánszky utca,48.088000,20.774093
643709,Fényesvölgyi utca,48.100264,20.678825
643710,Hajós Alfréd utca,48.091340,20.773584
643711,Vasgyári út,48.098475,20.731524
643712,Vasgyári út,48.099421,20.732577
643713,Hóvirág utca,48.112068,20.668342
643714,Hóvirág utca,48.111472,20.669594
643715,Debreceni Márton tér,48.128720,20.682063
643716,Debreceni Márton tér,48.128517,20.683181
643717,Eper utca,48.101110,20.673358
643718,Dayka Gábor utca,48.105516,20.775315
643719,Derkovits utca,48.090158,20.780845
643720,Derkovits utca,48.090349,20.781546
643721,LÁEV VP,48.100069,20.703018
643722,Zenta utca  VP,48.099616,20.696940
643723,DVTK Stadion VP,48.100872,20.718953
643724,Geró János utca,48.102335,20.764697
643725,Avasalja utca,48.100568,20.765090
643726,Avasalja utca,48.100437,20.765206
643727,Avar utca,48.101874,20.732588
643728,Avar utca,48.101741,20.732765
643729,Eperjesi utca,48.107970,20.798587
643730,Mendikás,48.094366,20.765324
643731,Mendikás,48.094472,20.765685
643732,Hideg sor,48.098146,20.764875
643733,Hideg sor,48.097338,20.763817
643742,Diósgyőri Gimnázium VP,48.100250,20.708686
644191,Szövő utca,48.097490,20.758235
644192,Szövő utca,48.097735,20.759157
644199,Kassai út,48.108506,20.855007
644200,Kassai út,48.108257,20.855697
644242,Erzsébet királyné utca,48.060991,20.794485
644255,Ifjúság útja,48.084867,20.777122
644256,Ifjúság útja,48.083680,20.777240
644263,Hajós Alfréd utca,48.089950,20.773479
644264,Mednyánszky utca,48.086510,20.774001
644270,Felső-Majláth,48.108727,20.675941
644272,Újgyőri főtér,48.101025,20.731031
644293,Búza tér/Zsolcai kapu,48.104348,20.792619
644294,Búza tér/Zsolcai kapu,48.104191,20.792527
644572,Dózsa György út (7),48.104507,20.857498
644586,Hősök tere (7),48.105762,20.850577
644587,Hősök tere (7),48.106017,20.851150
644594,Vízügyi Igazgatóság (8),48.100482,20.827169
644595,Vízügyi Igazgatóság (8),48.100282,20.827705
644602,Lévay József utca (32),48.092973,20.792209
644603,Lévay József utca (32),48.092391,20.792360
644610,Palotaszálló (15),48.105643,20.622343
644611,Palotaszálló (15),48.105599,20.622377
644618,Szarka-hegy (6),48.105515,20.709728
644619,Szarka-hegy (6),48.105172,20.709806
644630,Szondi György utca (7),48.106399,20.812915
644631,Szondi György utca (7),48.106413,20.814155
649194,Déli Ipari Park-JOYSON,48.057679,20.809215
649195,Déli Ipari Park-JOYSON,48.057572,20.809162
649377,Berzsenyi Dániel utca,48.087179,20.815976
651162,Szirma ÉMKK,48.062239,20.825317
651229,Sütő János utca,48.068896,20.780278
651230,Mész utca,48.066960,20.787541
651233,Dózsa György út,48.106894,20.778933
651234,Dózsa György út,48.106848,20.777528
651238,Hősök tere,48.104902,20.785494
651239,Hősök tere,48.104947,20.785392
670745,Felső-Majláth,48.108670,20.676311
670746,Felső-Majláth,48.108835,20.676405
670750,Felső-Majláth,48.108965,20.675865
670751,Felső-Majláth,48.109313,20.675680
679667,Malomszög utca,48.104473,20.769776
681427,"Mechatronikai Park, főkapu",48.133077,20.799274
682050,Soltész Nagy Kálmán utca,48.102797,20.796857
682051,Soltész Nagy Kálmán utca,48.102753,20.797226
682052,Szinvapark/Centrum,48.103106,20.791122
682053,Szinvapark/Centrum,48.102886,20.789446
682119,Thököly utca,48.104191,20.757866
682120,Thököly utca,48.104225,20.758291
682121,Balázs Győző tér,48.103685,20.752198
682122,Balázs Győző tér,48.103589,20.751233
682124,Gyula utca,48.102871,20.743822
682126,Károly utca,48.102309,20.737995
682127,Károly utca,48.102238,20.737283
682130,Malomszög utca,48.104423,20.770147
682132,Újgyőri piac,48.101013,20.725521
682133,Újgyőri piac,48.101055,20.725948
682134,Újgyőri főtér,48.101427,20.729676
682135,Újgyőri főtér,48.101465,20.730068
682419,Gyula utca,48.103001,20.745346
682420,Szent Anna tér,48.104618,20.763113
682421,Szent Anna tér,48.104621,20.763508
682572,Villanyrendőr,48.102498,20.785806
682573,Villanyrendőr,48.102504,20.785163
682574,Városház tér,48.103080,20.779429
682575,Városház tér,48.103256,20.779038
685373,Középszer utca / Iskola,48.084764,20.782599
685374,Középszer utca / Szolgáltató házak,48.080756,20.782947
685375,Testvérvárosok útja,48.078215,20.782652
685860,Bükkszentlászló alvég,48.071388,20.675804
685861,Bükkszentlászló alvég,48.071438,20.675809
693893,Galamb József utca,48.066405,20.800894
693894,Galamb József utca,48.067458,20.804385
710143,Üllő utca,48.089881,20.712331
710155,Gábor Dénes utca,48.051575,20.809986
720821,Tiszai pályaudvar,48.098953,20.808659
720836,Kandó Kálmán utca,48.097255,20.705662
722316,Hejőmente,48.063153,20.799038
722317,Hejőmente,48.063051,20.799046
724185,Erzsébet királyné utca,48.061139,20.796106
724588,Mechatronikai Park - Nyugat,48.136564,20.793884
724707,Repülőtér megállóhely,48.130072,20.792977
724708,"Mechatronikai Park, központ",48.135730,20.798713
724792,Diósgyőri Gimnázium,48.100072,20.708614
747092,Szent Anna tér,48.104142,20.764191
747093,Szent Anna tér,48.104691,20.763226
